[
  {
    "name": "Feldstraße",
    "street": "Feldstraße 52",
    "city": "Goslar",
    "zipCode": "38640",
    "url": "https://www.goslar.de/wirtschafts-und-zukunftsort/betriebshof/friedhoefe/feldstrasse",
    "image": "/feldstraße.jpg",
    "latitude": 51.91773,
    "longitude": 10.43667
  },
  {
    "name": "Hildesheimer Straße",
    "street": "Am Friedhof 1",
    "city": "Goslar",
    "zipCode": "38640",
    "url": "https://www.goslar.de/wirtschafts-und-zukunftsort/betriebshof/friedhoefe/hildesheimer-strasse",
    "image": "/hildesheimer.jpg",
    "latitude": 51.91380,
    "longitude": 10.41678
  },
  {
    "name": "Oker",
    "street": "Kleine Horst",
    "city": "Goslar",
    "zipCode": "38642",
    "url": "https://www.goslar.de/wirtschafts-und-zukunftsort/betriebshof/friedhoefe/ortsteil-oker",
    "image": "/hildesheimer.jpg",
    "latitude": 51.898913,
    "longitude": 10.475091
  },
  {
    "name": "Jerstedt",
    "street": "Auf dem Berge",
    "city": "Goslar",
    "zipCode": "38644",
    "url": "https://www.goslar.de/wirtschafts-und-zukunftsort/betriebshof/friedhoefe/ortsteil-jerstedt",
    "image": "/hildesheimer.jpg",
    "latitude": 51.953436,
    "longitude": 10.383961
  },
  {
    "name": "Hahnenklee",
    "street": "Bockswieser Straße",
    "city": "Goslar",
    "zipCode": "38644",
    "url": "https://www.goslar.de/wirtschafts-und-zukunftsort/betriebshof/friedhoefe/ortsteil-hahnenklee",
    "image": "/hahnenklee.jpg",
    "latitude": 51.856490,
    "longitude": 10.334510
  }
]
